[
    {
        "active": true,
        "categoryService": 4,
        "categoryType": 4,
        "location": {
            "latitude": 39.195348,
            "longitude": 9.159371
        },
        "name": "Le Palmette",
        "instagram":"LePalmette",
        "description": "Chiosco Le Palmette - contattaci per personalizzare questo messaggio: contatti@poettoapp.com",
        "objectId": 1
    },
    {
        "active": true,
        "categoryService": 4,
        "categoryType": 4,
        "location": {
            "latitude": 39.204533,
            "longitude": 9.163968
        },
        "name": "Palm Beach",
        "instagram":"PalmBeachPoetto",
        "description": "Chiosco Palm Beach - contattaci per personalizzare questo messaggio: contatti@poettoapp.com",
        "objectId": 2
    },
    {
        "active": true,
        "categoryService": 4,
        "categoryType": 4,
        "location": {
            "latitude": 39.209107,
            "longitude": 9.168683
        },
        "name": "Il Nilo",
        "instagram":"IlNiloPoetto",
        "description": "Chiosco Il Nilo - contattaci per personalizzare questo messaggio: contatti@poettoapp.com",
        "objectId": 3
    },
    {
        "active": true,
        "categoryService": 4,
        "categoryType": 4,
        "location": {
            "latitude": 39.209509,
            "longitude": 9.169153
        },
        "name": "Calypso",
        "instagram":"CalypsoPoetto",
        "description": "Chiosco Calypso - contattaci per personalizzare questo messaggio: contatti@poettoapp.com",
        "objectId": 4
    },
    {
        "active": true,
        "categoryService": 4,
        "categoryType": 4,
        "location": {
            "latitude": 39.213553,
            "longitude": 9.174932
        },
        "name": "Chiosco #6",
        "description": "Chiosco #6 - contattaci per personalizzare questo messaggio: contatti@poettoapp.com",
        "instagram":"",
        "objectId": 5
    },
    {
        "active": true,
        "categoryService": 4,
        "categoryType": 4,
        "location": {
            "latitude": 39.1963,
            "longitude": 9.1595
        },
        "name": "La Sella Del Diavolo",
        "instagram":"LaSellaDelDiavoloPoetto",
        "description": "Chiosco La Sella Del Diavolo - contattaci per personalizzare questo messaggio: contatti@poettoapp.com",
        "objectId": 6
    },
    {
        "active": true,
        "categoryService": 1,
        "categoryType": 1,
        "location": {
            "latitude": 39.201278,
            "longitude": 9.161561
        },
        "name": "Il Lido",
        "instagram":"IlLidoPoetto",
        "description": "Stabilimento Il Lido - contattaci per personalizzare questo messaggio: contatti@poettoapp.com",
        "objectId": 7
    },
    {
        "active": true,
        "categoryService": 4,
        "categoryType": 4,
        "location": {
            "latitude": 39.203033,
            "longitude": 9.162901
        },
        "name": "Malibù",
        "instagram":"MalibuPoetto",
        "description": "Chiosco Malibù - contattaci per personalizzare questo messaggio: contatti@poettoapp.com",
        "objectId": 8
    },
    {
        "active": true,
        "categoryService": 2,
        "categoryType": 2,
        "location": {
            "latitude": 39.199791,
            "longitude": 9.16065
        },
        "name": "Ufficiali Marina Militare",
        "description": "Stabilimento privato Ufficiali Marina Militare",
        "instagram":"",
        "objectId": 9
    },
    {
        "active": true,
        "categoryService": 2,
        "categoryType": 2,
        "location": {
            "latitude": 39.202602,
            "longitude": 9.162818
        },
        "name": "Marina Militare",
        "description": "Stabilimento privato Marina Militare",
        "instagram":"",
        "objectId": 10
    },
    {
        "active": false,
        "categoryService": 4,
        "categoryType": 4,
        "location": {
            "latitude": 39.203765,
            "longitude": 9.1634
        },
        "name": "Chiosco #1  ",
        "description": "",
        "instagram":"",
        "objectId": 11
    },
    {
        "active": false,
        "categoryService": 1,
        "categoryType": 1,
        "location": {
            "latitude": 39.204628,
            "longitude": 9.164922
        },
        "name": "Stabilimento #2",
        "description": "",
        "instagram":"",
        "objectId": 12
    },
    {
        "active": true,
        "categoryService": 4,
        "categoryType": 4,
        "location": {
            "latitude": 39.20552,
            "longitude": 9.164631
        },
        "name": "Lanterna Rossa",
        "instagram":"LanternaRossaPoetto",
        "description": "Chiosco La Lanterna Rossa - contattaci per personalizzare questo messaggio: contatti@poettoapp.com",
        "objectId": 13
    },
    {
        "active": false,
        "categoryService": 1,
        "categoryType": 1,
        "location": {
            "latitude": 39.20556,
            "longitude": 9.165773
        },
        "name": "Stabilimento #3",
        "description": "",
        "instagram":"",
        "objectId": 14
    },
    {
        "active": true,
        "categoryService": 4,
        "categoryType": 4,
        "location": {
            "latitude": 39.20634,
            "longitude": 9.165476
        },
        "name": "Twist",
        "instagram":"TwistPoetto",
        "description": "Chiosco Twist - contattaci per personalizzare questo messaggio: contatti@poettoapp.com",
        "objectId": 15
    },
    {
        "active": true,
        "categoryService": 2,
        "categoryType": 2,
        "location": {
            "latitude": 39.206662,
            "longitude": 9.165897
        },
        "name": "Aeronautica Militare",
        "description": "Stabilimento Privato Aeronautica Militare",
        "instagram":"",
        "objectId": 16
    },
    {
        "active": true,
        "categoryService": 5,
        "categoryType": 4,
        "location": {
            "latitude": 39.20801,
            "longitude": 9.167331
        },
        "name": "Chiosco #4",
        "description": "Chiosco #4 - contattaci per personalizzare questo messaggio: contatti@poettoapp.com",
        "instagram":"",
        "objectId": 17
    },
    {
        "active": true,
        "categoryService": 4,
        "categoryType": 4,
        "location": {
            "latitude": 39.208588,
            "longitude": 9.16804
        },
        "name": "Il Miraggio",
        "instagram":"IlMiraggioPoetto",
        "description": "Chiosco Il Miraggio - contattaci per personalizzare questo messaggio: contatti@poettoapp.com",
        "objectId": 18
    },
    {
        "active": true,
        "categoryService": 5,
        "categoryType": 4,
        "location": {
            "latitude": 39.213115,
            "longitude": 9.174189
        },
        "name": "La Dolce Vita",
        "instagram":"LaDolceVitaPoetto",
        "description": "Chiosco La Dolce Vita - contattaci per personalizzare questo messaggio: contatti@poettoapp.com",
        "objectId": 19
    },
    {
        "active": true,
        "categoryService": 4,
        "categoryType": 4,
        "location": {
            "latitude": 39.213883,
            "longitude": 9.175576
        },
        "name": "Aramacao",
        "instagram":"AramacaoPoetto",
        "description": "Chiosco Aramacao - contattaci per personalizzare questo messaggio: contatti@poettoapp.com",
        "objectId": 20
    },
    {
        "active": true,
        "categoryService": 5,
        "categoryType": 4,
        "location": {
            "latitude": 39.214824,
            "longitude": 9.17727
        },
        "name": "Capolinea",
        "instagram":"CapolineaPoetto",
        "description": "Chiosco Capolinea - contattaci per personalizzare questo messaggio: contatti@poettoapp.com",
        "objectId": 21
    },
    {
        "active": true,
        "categoryService": 1,
        "categoryType": 1,
        "location": {
            "latitude": 39.215919,
            "longitude": 9.179314
        },
        "name": "Ottagono",
        "instagram":"OttagonoPoetto",
        "description": "Stabilimento Ottagono - contattaci per personalizzare questo messaggio: contatti@poettoapp.com",
        "objectId": 22
    },
    {
        "active": false,
        "categoryService": 5,
        "categoryType": 1,
        "location": {
            "latitude": 39.216952,
            "longitude": 9.181149
        },
        "name": "Golden Beach",
        "description": "",
        "instagram":"",
        "objectId": 23
    },
    {
        "active": true,
        "categoryService": 2,
        "categoryType": 2,
        "location": {
            "latitude": 39.217716,
            "longitude": 9.182466
        },
        "name": "Lido Del Carabiniere",
        "description": "Stabilimento privato Lido Del Carabiniere",
        "instagram":"",
        "objectId": 24
    },
    {
        "active": false,
        "categoryService": 5,
        "categoryType": 1,
        "location": {
            "latitude": 39.218682,
            "longitude": 9.184386
        },
        "name": "Alta Marea",
        "description": "",
        "instagram":"",
        "objectId": 25
    },
    {
        "active": true,
        "categoryService": 2,
        "categoryType": 2,
        "location": {
            "latitude": 39.21969,
            "longitude": 9.186588
        },
        "name": "Vigili Del Fuoco",
        "description": "Stabilimento privato Vigili del fuoco",
        "instagram":"",
        "objectId": 26
    },
    {
        "active": true,
        "categoryService": 2,
        "categoryType": 2,
        "location": {
            "latitude": 39.220105,
            "longitude": 9.187271
        },
        "name": "Corpo Nazionale Vigili Del Fuoco",
        "description": "Stabilimento privato Vigili del fuoco",
        "instagram":"",
        "objectId": 27
    },
    {
        "active": true,
        "categoryService": 5,
        "categoryType": 1,
        "location": {
            "latitude": 39.221063,
            "longitude": 9.189489
        },
        "name": "Bikini",
        "instagram":"BikiniPoetto",
        "description": "Chiosco Bikini - contattaci per personalizzare questo messaggio: contatti@poettoapp.com",
        "objectId": 28
    },
    {
        "active": true,
        "categoryService": 13,
        "categoryType": 1,
        "location": {
            "latitude": 39.221677,
            "longitude": 9.190894
        },
        "name": "Sax Beach",
        "instagram":"SaxBeach",
        "description": "Chiosco Sax Beach - contattaci per personalizzare questo messaggio: contatti@poettoapp.com",
        "objectId": 29
    },
    {
        "active": true,
        "categoryService": 13,
        "categoryType": 1,
        "location": {
            "latitude": 39.222337,
            "longitude": 9.192717
        },
        "name": "Marlin Beach Club",
        "instagram":"MarlinBeachClub",
        "description": "Chiosco Marlin Beach Club - contattaci per personalizzare questo messaggio: contatti@poettoapp.com",
        "objectId": 30
    },
    {
        "active": true,
        "categoryService": 5,
        "categoryType": 1,
        "location": {
            "latitude": 39.223001,
            "longitude": 9.195221
        },
        "name": "La Marinella",
        "instagram":"LaMarinella",
        "description": "Stabilimento La Marinella - contattaci per personalizzare questo messaggio: contatti@poettoapp.com",
        "objectId": 31
    },
    {
        "active": true,
        "categoryService": 5,
        "categoryType": 1,
        "location": {
            "latitude": 39.223847,
            "longitude": 9.197871
        },
        "name": "Skipper",
        "instagram":"SkipperPoetto",
        "description": "Stabilimento Skipper - contattaci per personalizzare questo messaggio: contatti@poettoapp.com",
        "objectId": 32
    },
    {
        "active": true,
        "categoryService": 13,
        "categoryType": 1,
        "location": {
            "latitude": 39.225933,
            "longitude": 9.204515
        },
        "name": "Frontemare",
        "instagram":"FronteMare",
        "description": "Stabilimento Frontemare - contattaci per personalizzare questo messaggio: contatti@poettoapp.com",
        "objectId": 33
    },
    {
        "active": false,
        "categoryService": 8,
        "categoryType": 8,
        "location": {
            "latitude": 39.218723,
            "longitude": 9.183736
        },
        "name": "Brave",
        "description": "",
        "instagram":"",
        "objectId": 34
    },
    {
        "active": true,
        "categoryService": 5,
        "categoryType": 4,
        "location": {
            "latitude": 39.204285,
            "longitude": 9.163676
        },
        "name": "Emerson",
        "instagram":"EmersonPoetto",
        "description": "Stabilimento Emerson - contattaci per personalizzare questo messaggio: contatti@poettoapp.com",
        "objectId": 35
    },
    {
        "active": true,
        "categoryService": 4,
        "categoryType": 4,
        "location": {
            "latitude": 39.194668,
            "longitude": 9.158952
        },
        "name": "Otium",
        "instagram":"OtiumPoetto",
        "description": "Chiosco Otium - contattaci per personalizzare questo messaggio: contatti@poettoapp.com",
        "objectId": 36
    },
    {
        "active": true,
        "categoryService": 1,
        "categoryType": 1,
        "location": {
            "latitude": 39.198376,
            "longitude": 9.160201
        },
        "name": "D'Aquila",
        "instagram":"DAquilaPoetto",
        "description": "Stabilimento D'Aquila - contattaci per personalizzare questo messaggio: contatti@poettoapp.com",
        "objectId": 37
    },
    {
        "active": true,
        "categoryService": 4,
        "categoryType": 4,
        "location": {
            "latitude": 39.210187,
            "longitude": 9.17001
        },
        "name": "Corto Maltese",
        "description": "Chiosco Corto Maltese - contattaci per personalizzare questo messaggio: contatti@poettoapp.com",
        "instagram":"CortoMaltesePoetto",
        "objectId": 38
    },
    {
        "active": true,
        "categoryService": 4,
        "categoryType": 4,
        "location": {
            "latitude": 39.210711,
            "longitude": 9.170671
        },
        "name": "Fico d'India",
        "description": "Chiosco Fico d'India - contattaci per personalizzare questo messaggio: contatti@poettoapp.com",
        "instagram":"FicoDIndiaPoetto",
        "objectId": 39
    },
    {
        "active": true,
        "categoryService": 2,
        "categoryType": 2,
        "location": {
            "latitude": 39.218003,
            "longitude": 9.18328
        },
        "name": "Polizia di Stato",
        "description": "Stabilimento privato Polizia di Stato - contattaci per personalizzare questo messaggio: contatti@poettoapp.com",
        "instagram":"",
        "objectId": 40
    },
    {
        "active": true,
        "categoryService": 2,
        "categoryType": 2,
        "location": {
            "latitude": 39.220364,
            "longitude": 9.187905
        },
        "name": "Guardia di Finanza",
        "description": "Stabilimento privato guardia di finanza - contattaci per personalizzare questo messaggio: contatti@poettoapp.com",
        "instagram":"",
        "objectId": 41
    },
    {
        "active": true,
        "categoryService": 1,
        "categoryType": 1,
        "location": {
            "latitude": 39.224559,
            "longitude": 9.200011
        },
        "name": "Lido Mediterraneo",
        "description": "Stabilimento Lido Mediterraneo - contattaci per personalizzare questo messaggio: contatti@poettoapp.com",
        "instagram":"LidoMediterraneoPoetto",
        "objectId": 42
    },
    {
        "active": false,
        "categoryService": 5,
        "categoryType": 1,
        "location": {
            "latitude": 39.225269,
            "longitude": 9.202456
        },
        "name": "Bay Watch",
        "description": "",
        "instagram":"",
        "objectId": 43
    },
    {
        "active": true,
        "categoryService": 256,
        "categoryType": 256,
        "location": {
            "latitude": 39.225889,
            "longitude": 9.203228
        },
        "name": "Campo da Basket",
        "description": "",
        "instagram":"BasketPoetto",
        "objectId": 44
    },
    {
        "active": true,
        "categoryService": 9,
        "categoryType": 8,
        "location": {
            "latitude": 39.226441,
            "longitude": 9.205374
        },
        "name": "Alma Beach Studios",
        "description": "Alma Beach Studios - contattaci per personalizzare questo messaggio: contatti@poettoapp.com",
        "instagram":"AlmaBeach",
        "objectId": 45
    },
    {
        "active": true,
        "categoryService": 5,
        "categoryType": 1,
        "location": {
            "latitude": 39.226577,
            "longitude": 9.206415
        },
        "name": "Joyo",
        "description": "Chiosco Joyo - contattaci per personalizzare questo messaggio: contatti@poettoapp.com",
        "instagram":"JoyoPoetto",
        "objectId": 46
    },
    {
        "active": true,
        "categoryService": 13,
        "categoryType": 1,
        "location": {
            "latitude": 39.227212,
            "longitude": 9.208799
        },
        "name": "Passaggio a NordOvest",
        "description": "Chiosco Passaggio a NordOvest - contattaci per personalizzare questo messaggio: contatti@poettoapp.com",
        "instagram":"NordOvestPoetto",
        "objectId": 47
    },
    {
        "active": true,
        "categoryService": 5,
        "categoryType": 1,
        "location": {
            "latitude": 39.227724,
            "longitude": 9.21087
        },
        "name": "BlueSky",
        "description": "Chiosco BlueSky - contattaci per personalizzare questo messaggio: contatti@poettoapp.com",
        "instagram":"BlueSkyPoetto",
        "objectId": 48
    },
    {
        "active": true,
        "categoryService": 5,
        "categoryType": 1,
        "location": {
            "latitude": 39.228173,
            "longitude": 9.213115
        },
        "name": "Le Due Torri",
        "description": "Chiosco Le Due Torri - contattaci per personalizzare questo messaggio: contatti@poettoapp.com",
        "instagram":"LeDueTorriPoetto",
        "objectId": 49
    },
    {
        "active": true,
        "categoryService": 5,
        "categoryType": 1,
        "location": {
            "latitude": 39.228793,
            "longitude": 9.216073
        },
        "name": "I Pini",
        "description": "Chiosco I Pini - contattaci per personalizzare questo messaggio: contatti@poettoapp.com",
        "instagram":"IPiniPoetto",
        "objectId": 50
    },
    {
        "active": true,
        "categoryService": 9,
        "categoryType": 8,
        "location": {
            "latitude": 39.226681,
            "longitude": 9.20560
        },
        "name": "Kingka",
        "description": "Kingka - contattaci per personalizzare questo messaggio: contatti@poettoapp.com",
        "instagram":"Kingka",
        "objectId": 51
    },
    {
        "active": true,
        "categoryService": 9,
        "categoryType": 8,
        "location": {
            "latitude": 39.220934,
            "longitude": 9.188293
        },
        "name": "Oasi dei 7vizi",
        "description": "Oasi dei sette vizi - contattaci per personalizzare questo messaggio: contatti@poettoapp.com",
        "instagram":"OasiDeiSetteVizi",
        "objectId": 52
    },
    {
        "active": true,
        "categoryService": 16,
        "categoryType": 16,
        "location": {
            "latitude": 39.226330,
            "longitude": 9.204580
        },
        "name": "Toilet",
        "objectId": 53
    },
    {
        "active": true,
        "categoryService": 16,
        "categoryType": 16,
        "location": {
            "latitude": 39.228044,
            "longitude": 9.212127
        },
        "name": "Toilet",
        "objectId": 54
    },
    {
        "active": true,
        "categoryService": 4096,
        "categoryType": 4096,
        "location": {
            "latitude": 39.218945,
            "longitude": 9.183935
        },
        "name": "Dog Area",
        "description": "Dog Service - contattaci per personalizzare questo messaggio: contatti@poettoapp.com",
        "instagram":"DogAreaPoetto",
        "objectId": 55
    },
    {
        "active": true,
        "categoryService": 16,
        "categoryType": 16,
        "location": {
            "latitude": 39.215009,
            "longitude": 9.177671
        },
        "name": "Toilet",
        "objectId": 56
    },
    {
        "active": true,
        "categoryService": 16,
        "categoryType": 16,
        "location": {
            "latitude": 39.214108,
            "longitude": 9.176059
        },
        "name": "Toilet",
        "objectId": 57
    },
    {
        "active": true,
        "categoryService": 16,
        "categoryType": 16,
        "location": {
            "latitude": 39.209794,
            "longitude": 9.169643
        },
        "name": "Toilet",
        "objectId": 58
    },
    {
        "active": true,
        "categoryService": 16,
        "categoryType": 16,
        "location": {
            "latitude": 39.208684,
            "longitude": 9.168253
        },
        "name": "Toilet",
        "objectId": 59
    },
    {
        "active": true,
        "categoryService": 16,
        "categoryType": 16,
        "location": {
            "latitude": 39.205631,
            "longitude": 9.164810
        },
        "name": "Toilet",
        "objectId": 60
    },
    {
        "active": true,
        "categoryService": 16,
        "categoryType": 16,
        "location": {
            "latitude": 39.204366,
            "longitude": 9.163845
        },
        "name": "Toilet",
        "objectId": 61
    },
    {
        "active": true,
        "categoryService": 16,
        "categoryType": 16,
        "location": {
            "latitude": 39.202932,
            "longitude": 9.162787
        },
        "name": "Toilet",
        "objectId": 62
    },
    {
        "active": true,
        "categoryService": 16,
        "categoryType": 16,
        "location": {
            "latitude": 39.196676,
            "longitude": 9.159629
        },
        "name": "Toilet",
        "objectId": 63
    },
    {
        "active": true,
        "categoryService": 16,
        "categoryType": 16,
        "location": {
            "latitude": 39.195150,
            "longitude": 9.159254
        },
        "name": "Toilet",
        "objectId": 64
    },
    {
        "active": true,
        "categoryService": 4,
        "categoryType": 4,
        "location": {
            "latitude": 39.193363,
            "longitude": 9.159932
        },
        "name": "Spinnaker",
        "description": "Spinnaker - contattaci per personalizzare questo messaggio: contatti@poettoapp.com",
        "instagram":"SpinnakerPoetto",
        "objectId": 65
    },
    {
        "active": true,
        "categoryService": 512,
        "categoryType": 512,
        "location": {
            "latitude": 39.223887,
            "longitude": 9.196762
        },
        "name": "Parco",
        "objectId": 66
    },
    {
        "active": true,
        "categoryService": 512,
        "categoryType": 512,
        "location": {
            "latitude": 39.226888,
            "longitude": 9.206231
        },
        "name": "Parco",
        "objectId": 67
    },
    {
        "active": true,
        "categoryService": 64,
        "categoryType": 64,
        "location": {
            "latitude": 39.213427,
            "longitude": 9.174204
        },
        "name": "Ospedale Marino",
        "objectId": 68
    },
    {
        "active": true,
        "categoryService": 128,
        "categoryType": 128,
        "location": {
            "latitude": 39.194366,
            "longitude": 9.157580
        },
        "name": "Fuel",
        "objectId": 69
    },
    {
        "active": true,
        "categoryService": 128,
        "categoryType": 128,
        "location": {
            "latitude": 39.230020,
            "longitude": 9.222971
        },
        "name": "Fuel",
        "objectId": 70
    }
    
]
